[
  {
    "name": "Post Office Ltd",
    "type": "bank",
    "lat": 50.831272,
    "lon": -0.1481624,
    "address": "20 Melville Road, Hove",
    "rating": 4.8,
    "side": "north-west"
  },
  {
    "name": "Barclays Bank",
    "type": "bank",
    "lat": 50.82348820000001,
    "lon": -0.1418272,
    "address": "139-142 North Street, Brighton",
    "rating": 4.3,
    "side": "central-central"
  },
  {
    "name": "HSBC Brighton",
    "type": "bank",
    "lat": 50.8231526,
    "lon": -0.1406501,
    "address": "153 North Street, Brighton",
    "rating": 4.1,
    "side": "central-central"
  },
  {
    "name": "Nationwide Building Society",
    "type": "bank",
    "lat": 50.8228534,
    "lon": -0.1437376,
    "address": "New Oxford House, 54-56 West Street, Brighton",
    "rating": 4.6,
    "side": "central-central"
  },
  {
    "name": "Lewes Road Post Office and phone shop",
    "type": "bank",
    "lat": 50.83249540000001,
    "lon": -0.1295261,
    "address": "6 Lewes Road, Brighton",
    "rating": 2.5,
    "side": "north-east"
  },
  {
    "name": "Nationwide Building Society",
    "type": "bank",
    "lat": 50.83088979999999,
    "lon": -0.1359614,
    "address": "117 London Road, Brighton",
    "rating": 4.4,
    "side": "north-central"
  },
  {
    "name": "Halifax",
    "type": "bank",
    "lat": 50.8238367,
    "lon": -0.1468343,
    "address": "34/35 Western Road, East Sussex, Brighton",
    "rating": 3.8,
    "side": "central-west"
  },
  {
    "name": "The Co-operative Bank - Brighton",
    "type": "bank",
    "lat": 50.82442870000001,
    "lon": -0.1488268,
    "address": "164/165 Western Road, Brighton",
    "rating": 3.5,
    "side": "central-west"
  },
  {
    "name": "ABN AMRO Commercial Finance",
    "type": "bank",
    "lat": 50.8293295,
    "lon": -0.1398333,
    "address": "Mocatta House, Blackmore Court, Brighton",
    "rating": null,
    "side": "north-central"
  },
  {
    "name": "Lloyds Bank",
    "type": "bank",
    "lat": 50.8220967,
    "lon": -0.1386549,
    "address": "171-173 North Street, Brighton",
    "rating": 3.1,
    "side": "central-central"
  },
  {
    "name": "Santander",
    "type": "bank",
    "lat": 50.8239032,
    "lon": -0.1449791,
    "address": "206 Western Road, East Sussex, Brighton",
    "rating": 3.4,
    "side": "central-central"
  },
  {
    "name": "NatWest Brighton Town Centre",
    "type": "bank",
    "lat": 50.8230974,
    "lon": -0.1465393,
    "address": "Unit 40, Churchill Square, Brighton and Hove, Brighton",
    "rating": 3.6,
    "side": "central-west"
  },
  {
    "name": "TSB Bank",
    "type": "bank",
    "lat": 50.8239367,
    "lon": -0.1475201,
    "address": "45/46 Western Road, Brighton",
    "rating": 3.5,
    "side": "central-west"
  },
  {
    "name": "Post Office",
    "type": "bank",
    "lat": 50.8328462,
    "lon": -0.1376873,
    "address": "82 London Road, Brighton",
    "rating": 3.7,
    "side": "north-central"
  },
  {
    "name": "Church Road Hove Post Office / Taylors",
    "type": "bank",
    "lat": 50.8271619,
    "lon": -0.1672864,
    "address": "30 Church Road, Hove",
    "rating": 3.2,
    "side": "north-west"
  },
  {
    "name": "Whitehawk Road Post Office",
    "type": "bank",
    "lat": 50.81763609999999,
    "lon": -0.106773,
    "address": "1B-2B, Whitehawk Road, Brighton",
    "rating": 4.9,
    "side": "south-east"
  },
  {
    "name": "NatWest Hove Town Hall",
    "type": "bank",
    "lat": 50.8277872,
    "lon": -0.1696923,
    "address": "103 Church Road, Hove",
    "rating": 2.5,
    "side": "north-west"
  },
  {
    "name": "Lloyds Bank",
    "type": "bank",
    "lat": 50.8275583,
    "lon": -0.1704205,
    "address": "74-78 Church Road, East Sussex, Hove",
    "rating": 3.9,
    "side": "north-west"
  },
  {
    "name": "Blatchington Road Post Office",
    "type": "bank",
    "lat": 50.8309635,
    "lon": -0.1730757,
    "address": "92 Blatchington Road, Hove",
    "rating": 4.5,
    "side": "north-west"
  },
  {
    "name": "Nationwide Building Society",
    "type": "bank",
    "lat": 50.82918069999999,
    "lon": -0.1735375,
    "address": "19 George Street, Hove",
    "rating": 4.2,
    "side": "north-west"
  },
  {
    "name": "Whitehawk Avenue Post Office",
    "type": "bank",
    "lat": 50.8273944,
    "lon": -0.1053243,
    "address": "27 Whitehawk Way, Brighton",
    "rating": 3.8,
    "side": "north-east"
  },
  {
    "name": "Tesco Bank ATM",
    "type": "bank",
    "lat": 50.8244959,
    "lon": -0.1389479,
    "address": "Tesco Express, Jubilee Street, EAST SUSSEX, Brighton",
    "rating": 1,
    "side": "central-central"
  },
  {
    "name": "Metro Bank",
    "type": "bank",
    "lat": 50.82362829999999,
    "lon": -0.1443377,
    "address": "82 North Street, Brighton",
    "rating": 3.5,
    "side": "central-central"
  },
  {
    "name": "Tesco Bank ATM",
    "type": "bank",
    "lat": 50.82661099999999,
    "lon": -0.141844,
    "address": "Tesco Express, QUEEN STREET, Brighton",
    "rating": 1,
    "side": "central-central"
  },
  {
    "name": "ELECTRONIC PAYMENT SOLUTIONS LTD",
    "type": "bank",
    "lat": 50.82932949999999,
    "lon": -0.1398335,
    "address": "Mocatta House, Blackmore Court, Brighton",
    "rating": null,
    "side": "north-central"
  },
  {
    "name": "Tesco Bank ATM",
    "type": "bank",
    "lat": 50.8380778,
    "lon": -0.1549736,
    "address": "TESCO EXPRESS (ESSO PFS, Dyke Road, EAST SUSSEX, Hove",
    "rating": null,
    "side": "north-west"
  },
  {
    "name": "Hollingbury Post Office",
    "type": "bank",
    "lat": 50.84335399999999,
    "lon": -0.1353397,
    "address": "148 Preston Drove, Brighton",
    "rating": 3.8,
    "side": "north-central"
  },
  {
    "name": "Hollingbury Place Post Office",
    "type": "bank",
    "lat": 50.8440409,
    "lon": -0.1308543,
    "address": "7 Hollingbury Place, Brighton",
    "rating": 4.5,
    "side": "north-east"
  },
  {
    "name": "Santander",
    "type": "bank",
    "lat": 50.8284368,
    "lon": -0.1739078,
    "address": "2 George Street, Hove",
    "rating": 2.8,
    "side": "north-west"
  },
  {
    "name": "Tesco Bank ATM",
    "type": "bank",
    "lat": 50.83443880000002,
    "lon": -0.169268,
    "address": "Tesco Express, Denmark Villas, EAST SUSSEX, Hove",
    "rating": 2,
    "side": "north-west"
  },
  {
    "name": "Tivoli Post Office",
    "type": "bank",
    "lat": 50.8434464,
    "lon": -0.158494,
    "address": "1 Matlock Road, Brighton",
    "rating": 3.5,
    "side": "north-west"
  },
  {
    "name": "Tesco Bank ATM",
    "type": "bank",
    "lat": 50.8291874,
    "lon": -0.1755975,
    "address": "Tesco Superstore, Church Road, EAST SUSSEX, Hove",
    "rating": 5,
    "side": "north-west"
  }
]