[
  {
    "name": "TGJones",
    "type": "book_store",
    "lat": 50.8315686,
    "lon": -0.1368323,
    "address": "37, 37A London Road, Brighton",
    "rating": 3.7,
    "side": "north-central"
  },
  {
    "name": "Dave's Comics",
    "type": "book_store",
    "lat": 50.8272131,
    "lon": -0.1380938,
    "address": "5 Sydney Street, Brighton and Hove, Brighton",
    "rating": 4.8,
    "side": "north-central"
  },
  {
    "name": "Shabitat",
    "type": "book_store",
    "lat": 50.8386161,
    "lon": -0.1247839,
    "address": "Saunders Park Depot, Lewes Road, Brighton",
    "rating": 4.5,
    "side": "north-east"
  },
  {
    "name": "Oxfam",
    "type": "book_store",
    "lat": 50.8248804,
    "lon": -0.1515794,
    "address": "136a Western Road, Brighton",
    "rating": 3.3,
    "side": "central-west"
  },
  {
    "name": "The Salariya Book Company",
    "type": "book_store",
    "lat": 50.82512209999999,
    "lon": -0.136873,
    "address": "book house, 25 Marlborough Place, Brighton",
    "rating": 4.5,
    "side": "central-central"
  },
  {
    "name": "Bradley's",
    "type": "book_store",
    "lat": 50.8347405,
    "lon": -0.1293346,
    "address": "113 Upper Lewes Road, East Sussex, Brighton",
    "rating": 3.6,
    "side": "north-east"
  },
  {
    "name": "Waterstones",
    "type": "book_store",
    "lat": 50.82354350000001,
    "lon": -0.1437504,
    "address": "71-74 North Street, Brighton",
    "rating": 4.6,
    "side": "central-central"
  },
  {
    "name": "Books for Amnesty",
    "type": "book_store",
    "lat": 50.8276298,
    "lon": -0.1378627,
    "address": "15 Sydney Street, Brighton",
    "rating": 4.6,
    "side": "north-central"
  },
  {
    "name": "Raining Books",
    "type": "book_store",
    "lat": 50.8282278,
    "lon": -0.1383616,
    "address": "United Kingdom",
    "rating": 4.3,
    "side": "north-central"
  },
  {
    "name": "WHSmith",
    "type": "book_store",
    "lat": 50.828762,
    "lon": -0.1413299,
    "address": "Brighton Railway Station, Queens Road, Brighton",
    "rating": 3.5,
    "side": "north-central"
  },
  {
    "name": "St George's",
    "type": "book_store",
    "lat": 50.8193543,
    "lon": -0.1237148,
    "address": "1, Garnet House, 1, Local, Saint George's Road, Brighton",
    "rating": 4.2,
    "side": "south-east"
  },
  {
    "name": "Savery Books",
    "type": "book_store",
    "lat": 50.8438702,
    "lon": -0.1349232,
    "address": "257 Ditchling Road, Brighton",
    "rating": 4.9,
    "side": "north-east"
  },
  {
    "name": "TGJones",
    "type": "book_store",
    "lat": 50.8235986,
    "lon": -0.1461019000000001,
    "address": "Churchill Square, 69 Grenville Street, Brighton",
    "rating": 3.9,
    "side": "central-west"
  },
  {
    "name": "The Works",
    "type": "book_store",
    "lat": 50.8125428,
    "lon": -0.1022754,
    "address": "The Waterfront, Mermaid Walk, Brighton Marina, Brighton",
    "rating": 4.2,
    "side": "south-east"
  },
  {
    "name": "hmv",
    "type": "book_store",
    "lat": 50.8228634,
    "lon": -0.145598,
    "address": "Unit MSU1A, Churchill Square Shopping Centre, Lower Mall, Brighton",
    "rating": 4.3,
    "side": "central-west"
  },
  {
    "name": "Oxfam",
    "type": "book_store",
    "lat": 50.82326760000001,
    "lon": -0.1411371,
    "address": "146a North Street, Brighton",
    "rating": 3.7,
    "side": "central-central"
  },
  {
    "name": "Pussy Home Boutique",
    "type": "book_store",
    "lat": 50.82589839999999,
    "lon": -0.1388865,
    "address": "3A Kensington Gardens, Brighton",
    "rating": 4.3,
    "side": "central-central"
  },
  {
    "name": "City Books",
    "type": "book_store",
    "lat": 50.82541210000001,
    "lon": -0.1575667,
    "address": "23 Western Road, Hove",
    "rating": 4.8,
    "side": "central-west"
  },
  {
    "name": "The Book Nook",
    "type": "book_store",
    "lat": 50.8266393,
    "lon": -0.165417,
    "address": "First Avenue, Hove",
    "rating": 4.8,
    "side": "central-west"
  },
  {
    "name": "Oxfam",
    "type": "book_store",
    "lat": 50.83035030000001,
    "lon": -0.1362769,
    "address": "13 London Road, Brighton",
    "rating": 4,
    "side": "north-central"
  },
  {
    "name": "The Queery",
    "type": "book_store",
    "lat": 50.82159530000001,
    "lon": -0.1344277,
    "address": "46 George Street, Brighton",
    "rating": 4.8,
    "side": "central-east"
  },
  {
    "name": "Treble Magazine",
    "type": "book_store",
    "lat": 50.8199897,
    "lon": -0.1376092,
    "address": "39 Old Steine, Brighton",
    "rating": null,
    "side": "south-central"
  },
  {
    "name": "Last Bookshop",
    "type": "book_store",
    "lat": 50.8251396,
    "lon": -0.139227,
    "address": "40 Gardner Street, Brighton and Hove, Brighton",
    "rating": 4.8,
    "side": "central-central"
  },
  {
    "name": "Goldsboro Books",
    "type": "book_store",
    "lat": 50.82187219999999,
    "lon": -0.1417604,
    "address": "22b Ship Street, Brighton",
    "rating": 4.8,
    "side": "central-central"
  },
  {
    "name": "Kayes Newsagents",
    "type": "book_store",
    "lat": 50.8228058,
    "lon": -0.1424925,
    "address": "37 Duke Street, Brighton",
    "rating": 3,
    "side": "central-central"
  },
  {
    "name": "The Bookend by Jane & Jeremy",
    "type": "book_store",
    "lat": 50.8261274,
    "lon": -0.1365396,
    "address": "Studio 7, Yoyo Yard, 36 Cheltenham Place, Brighton",
    "rating": 5,
    "side": "central-central"
  },
  {
    "name": "Forbidden Planet Brighton",
    "type": "book_store",
    "lat": 50.82304939999999,
    "lon": -0.1440647,
    "address": "35-36 West Street, Brighton",
    "rating": 4.2,
    "side": "central-central"
  },
  {
    "name": "Shiv News",
    "type": "book_store",
    "lat": 50.8202635,
    "lon": -0.1310131,
    "address": "79-80 Saint James's Street, Brighton",
    "rating": 4.4,
    "side": "south-east"
  },
  {
    "name": "Afrori Books",
    "type": "book_store",
    "lat": 50.82591859999999,
    "lon": -0.1418876,
    "address": "Brighthelm Church & Community Centre, Brighton",
    "rating": 4.9,
    "side": "central-central"
  },
  {
    "name": "Easy News",
    "type": "book_store",
    "lat": 50.8282071,
    "lon": -0.1385049,
    "address": "30 Trafalgar Street, Brighton",
    "rating": 3.1,
    "side": "north-central"
  },
  {
    "name": "St Noah News",
    "type": "book_store",
    "lat": 50.8284046,
    "lon": -0.1397394,
    "address": "41 Trafalgar Street, Brighton",
    "rating": 3.3,
    "side": "north-central"
  },
  {
    "name": "The Works",
    "type": "book_store",
    "lat": 50.8239308,
    "lon": -0.1477966,
    "address": "48-50 Western Road, Brighton",
    "rating": 3.9,
    "side": "central-west"
  },
  {
    "name": "Smokemart",
    "type": "book_store",
    "lat": 50.8319526,
    "lon": -0.1371484,
    "address": "45 London Road, Brighton",
    "rating": 4.5,
    "side": "north-central"
  },
  {
    "name": "Kemptown Bookshop",
    "type": "book_store",
    "lat": 50.8186264,
    "lon": -0.12192,
    "address": "91 Saint George's Road, Brighton",
    "rating": 4.8,
    "side": "south-east"
  },
  {
    "name": "Cliffords Newsagent",
    "type": "book_store",
    "lat": 50.823395,
    "lon": -0.1206813,
    "address": "Cliffford Newsagent, 11 Sutherland Road, Brighton",
    "rating": 5,
    "side": "central-east"
  },
  {
    "name": "PREMIER LODGE STORE - OFF LICENCE - VAPE SHOP",
    "type": "book_store",
    "lat": 50.8312551,
    "lon": -0.1471841,
    "address": "42 Prestonville Road, Brighton",
    "rating": 4.4,
    "side": "north-west"
  },
  {
    "name": "Say It With Sheet Music",
    "type": "book_store",
    "lat": 50.8461041,
    "lon": -0.1299938,
    "address": "47 Hertford Road, Brighton",
    "rating": null,
    "side": "north-east"
  },
  {
    "name": "Waterstones",
    "type": "book_store",
    "lat": 50.8292454,
    "lon": -0.1738041,
    "address": "90-91 George Street, Hove",
    "rating": 4.4,
    "side": "north-west"
  },
  {
    "name": "The Works",
    "type": "book_store",
    "lat": 50.8297658,
    "lon": -0.1736271,
    "address": "78/79 George Street, Hove",
    "rating": 4.5,
    "side": "north-west"
  },
  {
    "name": "Cookbookbake",
    "type": "book_store",
    "lat": 50.8250065,
    "lon": -0.1756458,
    "address": "7 Victoria Terrace, Hove",
    "rating": 4.8,
    "side": "central-west"
  },
  {
    "name": "The Station",
    "type": "book_store",
    "lat": 50.8358134,
    "lon": -0.1701469,
    "address": "7A Hove Park Villas, Hove",
    "rating": 4.3,
    "side": "north-west"
  },
  {
    "name": "Oxfam Bookshop",
    "type": "book_store",
    "lat": 50.8312852,
    "lon": -0.1750567,
    "address": "50 Blatchington Road, Hove",
    "rating": 4.9,
    "side": "north-west"
  }
]