[
  {
    "name": "TGJones",
    "type": "convenience_store",
    "lat": 50.8315686,
    "lon": -0.1368323,
    "address": "37, 37A London Road, Brighton",
    "rating": 3.7,
    "side": "north-central"
  },
  {
    "name": "Tesco Express",
    "type": "convenience_store",
    "lat": 50.824529,
    "lon": -0.138976,
    "address": "Tesco Xpress, 5 Jubilee Street, Brighton",
    "rating": 3.3,
    "side": "central-central"
  },
  {
    "name": "Sainsbury's Local",
    "type": "convenience_store",
    "lat": 50.8237014,
    "lon": -0.1424414,
    "address": "134 North Street, Brighton",
    "rating": 3,
    "side": "central-central"
  },
  {
    "name": "Sainsbury's Local",
    "type": "convenience_store",
    "lat": 50.8259251,
    "lon": -0.161221,
    "address": "55-56 Western Road, Hove",
    "rating": 3.7,
    "side": "central-west"
  },
  {
    "name": "Sainsbury's Local",
    "type": "convenience_store",
    "lat": 50.82468,
    "lon": -0.15037,
    "address": "147-148 Western Road, Brighton",
    "rating": 3.6,
    "side": "central-west"
  },
  {
    "name": "Co-op Food - Brighton - Lewes Road",
    "type": "convenience_store",
    "lat": 50.83476599999999,
    "lon": -0.1267839,
    "address": "58-62 Lewes Road, Brighton",
    "rating": 3.4,
    "side": "north-east"
  },
  {
    "name": "Thingslicious",
    "type": "convenience_store",
    "lat": 50.82257380000001,
    "lon": -0.1513591000000001,
    "address": "83 Preston Street, Brighton",
    "rating": 3.6,
    "side": "central-west"
  },
  {
    "name": "Bright News",
    "type": "convenience_store",
    "lat": 50.829113,
    "lon": -0.1438,
    "address": "67A Buckingham Road, Brighton",
    "rating": 4.4,
    "side": "north-central"
  },
  {
    "name": "AfrikMark Brighton",
    "type": "convenience_store",
    "lat": 50.8339784,
    "lon": -0.1392364,
    "address": "4 Preston Road, Brighton",
    "rating": 4,
    "side": "north-central"
  },
  {
    "name": "Bradley's",
    "type": "convenience_store",
    "lat": 50.8347405,
    "lon": -0.1293346,
    "address": "113 Upper Lewes Road, East Sussex, Brighton",
    "rating": 3.6,
    "side": "north-east"
  },
  {
    "name": "Sainsbury's Local",
    "type": "convenience_store",
    "lat": 50.8212475,
    "lon": -0.1362859,
    "address": "13-15 Old Steine, Brighton",
    "rating": 3.4,
    "side": "central-central"
  },
  {
    "name": "Co-op Food - Brighton - North Street",
    "type": "convenience_store",
    "lat": 50.8232845,
    "lon": -0.1409481,
    "address": "147-148 North Street, Brighton",
    "rating": 3,
    "side": "central-central"
  },
  {
    "name": "Sainsbury's Local",
    "type": "convenience_store",
    "lat": 50.826836,
    "lon": -0.1422296,
    "address": "43 - 46 Queens Road, Brighton",
    "rating": 3.7,
    "side": "central-central"
  },
  {
    "name": "WHSmith",
    "type": "convenience_store",
    "lat": 50.828762,
    "lon": -0.1413299,
    "address": "Brighton Railway Station, Queens Road, Brighton",
    "rating": 3.5,
    "side": "north-central"
  },
  {
    "name": "Sweet Shop Shakes (B&W Stores)",
    "type": "convenience_store",
    "lat": 50.8292608,
    "lon": -0.1357941,
    "address": "29 York Place, Brighton",
    "rating": 4.5,
    "side": "north-central"
  },
  {
    "name": "M&S Simply Food",
    "type": "convenience_store",
    "lat": 50.82890390000001,
    "lon": -0.1415149,
    "address": "Main Concourse, Terminus Road, Brighton",
    "rating": 3.5,
    "side": "north-central"
  },
  {
    "name": "Mulberrys",
    "type": "convenience_store",
    "lat": 50.8194198,
    "lon": -0.127239,
    "address": "32 Upper St James's Street, Brighton",
    "rating": 3.7,
    "side": "south-east"
  },
  {
    "name": "Bavs Shop",
    "type": "convenience_store",
    "lat": 50.8280376,
    "lon": -0.1282082,
    "address": "46 Southover Street, Brighton",
    "rating": 5,
    "side": "north-east"
  },
  {
    "name": "Co-op Food - Kemptown - St George's Road",
    "type": "convenience_store",
    "lat": 50.8189181,
    "lon": -0.1223058,
    "address": "22-23 Saint George's Road, Kemptown, Brighton",
    "rating": 3.4,
    "side": "south-east"
  },
  {
    "name": "Co-op Food - Seven Dials - Dyke Road",
    "type": "convenience_store",
    "lat": 50.8307261,
    "lon": -0.1472192,
    "address": "106 Dyke Road, Brighton",
    "rating": 2,
    "side": "north-west"
  },
  {
    "name": "Montpelier Convenience Store & Off License",
    "type": "convenience_store",
    "lat": 50.8266052,
    "lon": -0.1540658,
    "address": "13 Montpelier Place, Hove",
    "rating": 5,
    "side": "central-west"
  },
  {
    "name": "The Co-operative Food Hove",
    "type": "convenience_store",
    "lat": 50.8254522,
    "lon": -0.1559683,
    "address": "130 Western Road, Hove",
    "rating": 3,
    "side": "central-west"
  },
  {
    "name": "Wild Bean Cafe",
    "type": "convenience_store",
    "lat": 50.8374655,
    "lon": -0.1247754,
    "address": "100 Lewes Road, Brighton",
    "rating": 2.8,
    "side": "north-east"
  },
  {
    "name": "Co-op Food - Brighton & Hove - Whitehawk Road",
    "type": "convenience_store",
    "lat": 50.8181634,
    "lon": -0.105923,
    "address": "Whitehawk Road, Brighton",
    "rating": 4,
    "side": "south-east"
  },
  {
    "name": "Co-op Food - Hove - Church Road",
    "type": "convenience_store",
    "lat": 50.8276292,
    "lon": -0.1709199,
    "address": "88-92 Church Road, Hove",
    "rating": 3.1,
    "side": "north-west"
  },
  {
    "name": "Grove Convenience Store",
    "type": "convenience_store",
    "lat": 50.8299572,
    "lon": -0.1668951,
    "address": "25 Wilbury Grove, Hove",
    "rating": 3.1,
    "side": "north-west"
  },
  {
    "name": "Mulberry Stores",
    "type": "convenience_store",
    "lat": 50.8274663,
    "lon": -0.1052571,
    "address": "29 Whitehawk Way, Brighton",
    "rating": 4.3,
    "side": "north-east"
  },
  {
    "name": "Mulberrys",
    "type": "convenience_store",
    "lat": 50.8438041,
    "lon": -0.130617,
    "address": "14 Hollingbury Place, Brighton",
    "rating": 3.9,
    "side": "north-east"
  },
  {
    "name": "Blake's convenience store",
    "type": "convenience_store",
    "lat": 50.8440241,
    "lon": -0.1308938,
    "address": "7 Hollingbury Place, Brighton",
    "rating": 4,
    "side": "north-east"
  },
  {
    "name": "Sainsbury's Local",
    "type": "convenience_store",
    "lat": 50.8437725,
    "lon": -0.1519167,
    "address": "227-233 Preston Road, Brighton",
    "rating": 3.4,
    "side": "north-west"
  },
  {
    "name": "Tivoli Food & Wine",
    "type": "convenience_store",
    "lat": 50.8422474,
    "lon": -0.1580615,
    "address": "2 Tivoli Crescent, East Sussex, Brighton",
    "rating": 3.9,
    "side": "north-west"
  },
  {
    "name": "TGJones",
    "type": "convenience_store",
    "lat": 50.8235986,
    "lon": -0.1461019000000001,
    "address": "Churchill Square, 69 Grenville Street, Brighton",
    "rating": 3.9,
    "side": "central-west"
  },
  {
    "name": "Co-op Food - Brighton & Hove - Blatchington Road",
    "type": "convenience_store",
    "lat": 50.83093849999999,
    "lon": -0.1738615,
    "address": "76-82 Blatchington Road, Hove",
    "rating": 3.9,
    "side": "north-west"
  },
  {
    "name": "Shell",
    "type": "convenience_store",
    "lat": 50.842145,
    "lon": -0.151529,
    "address": "193 Preston Road, Brighton",
    "rating": 3.9,
    "side": "north-west"
  },
  {
    "name": "Family Shopper",
    "type": "convenience_store",
    "lat": 50.820948,
    "lon": -0.13442,
    "address": "20 Saint James's Street, Brighton",
    "rating": 1.6,
    "side": "south-east"
  },
  {
    "name": "Co-op Food - Kemptown - St James's Street",
    "type": "convenience_store",
    "lat": 50.8206532,
    "lon": -0.1321733,
    "address": "41-45 Saint James's Street, Brighton",
    "rating": 3.8,
    "side": "south-east"
  },
  {
    "name": "Tesco Esso Express",
    "type": "convenience_store",
    "lat": 50.83817149999999,
    "lon": -0.1549579,
    "address": "239 Dyke Road, Hove",
    "rating": 3.3,
    "side": "north-west"
  },
  {
    "name": "M&S Simply Food",
    "type": "convenience_store",
    "lat": 50.83746490000001,
    "lon": -0.1247705,
    "address": "100 Lewes Road, Brighton",
    "rating": 3.2,
    "side": "north-east"
  },
  {
    "name": "Tesco Express",
    "type": "convenience_store",
    "lat": 50.8263906,
    "lon": -0.1615951,
    "address": "82 Western Road, Hove",
    "rating": 3.5,
    "side": "central-west"
  },
  {
    "name": "Tesco Superstore",
    "type": "convenience_store",
    "lat": 50.82887689999999,
    "lon": -0.176018,
    "address": "Church Road, EAST SUSSEX, Hove",
    "rating": 3.9,
    "side": "north-west"
  },
  {
    "name": "Mulberrys",
    "type": "convenience_store",
    "lat": 50.82432609999999,
    "lon": -0.1201433,
    "address": "34 Sutherland Road, Brighton",
    "rating": 3.5,
    "side": "central-east"
  },
  {
    "name": "Best-one",
    "type": "convenience_store",
    "lat": 50.8312035,
    "lon": -0.1478685,
    "address": "131 Dyke Road, Hove",
    "rating": 3.6,
    "side": "north-west"
  },
  {
    "name": "Tesco Express",
    "type": "convenience_store",
    "lat": 50.8265924,
    "lon": -0.1417454,
    "address": "104 Queens Road, Brighton",
    "rating": 3.3,
    "side": "central-central"
  },
  {
    "name": "Budgens",
    "type": "convenience_store",
    "lat": 50.8284044,
    "lon": -0.141051,
    "address": "Queens Road, Brighton",
    "rating": 2.2,
    "side": "north-central"
  },
  {
    "name": "Well Done Brighton",
    "type": "convenience_store",
    "lat": 50.8215945,
    "lon": -0.1381508,
    "address": "United Kingdom",
    "rating": 3.4,
    "side": "central-central"
  },
  {
    "name": "City News & Convenience Store",
    "type": "convenience_store",
    "lat": 50.8210753,
    "lon": -0.1357312,
    "address": "4 Saint James's Street, East Sussex, Brighton",
    "rating": 2,
    "side": "central-central"
  },
  {
    "name": "All Sorts Off Licence",
    "type": "convenience_store",
    "lat": 50.8229058,
    "lon": -0.1402245,
    "address": "159 North Street, Brighton and Hove, Brighton",
    "rating": 1,
    "side": "central-central"
  },
  {
    "name": "East Street News",
    "type": "convenience_store",
    "lat": 50.82014259999999,
    "lon": -0.1391088,
    "address": "72-73 East Street, Brighton",
    "rating": 5,
    "side": "south-central"
  },
  {
    "name": "Green City",
    "type": "convenience_store",
    "lat": 50.82063830000001,
    "lon": -0.1331453,
    "address": "United Kingdom",
    "rating": 3.8,
    "side": "south-east"
  },
  {
    "name": "Seaview Convenience Store Ltd",
    "type": "convenience_store",
    "lat": 50.82041580000001,
    "lon": -0.1426018,
    "address": "41 Kings Road, Brighton",
    "rating": 3,
    "side": "south-central"
  },
  {
    "name": "Pop In Shop",
    "type": "convenience_store",
    "lat": 50.8233393,
    "lon": -0.1435347,
    "address": "47 West Street, Brighton",
    "rating": 4.3,
    "side": "central-central"
  },
  {
    "name": "The Izzy Store",
    "type": "convenience_store",
    "lat": 50.8242805,
    "lon": -0.1433407,
    "address": "2 Queens Road, Brighton",
    "rating": 2.9,
    "side": "central-central"
  },
  {
    "name": "Shiv News",
    "type": "convenience_store",
    "lat": 50.8202635,
    "lon": -0.1310131,
    "address": "79-80 Saint James's Street, Brighton",
    "rating": 4.4,
    "side": "south-east"
  },
  {
    "name": "Gloucester Wines",
    "type": "convenience_store",
    "lat": 50.8269965,
    "lon": -0.1383147,
    "address": "107 Gloucester Road, Brighton",
    "rating": 3.7,
    "side": "central-central"
  },
  {
    "name": "S.V. News Convenience Store",
    "type": "convenience_store",
    "lat": 50.8205404,
    "lon": -0.1438955,
    "address": "United Kingdom",
    "rating": 3.7,
    "side": "south-central"
  },
  {
    "name": "Budgens",
    "type": "convenience_store",
    "lat": 50.82684090000001,
    "lon": -0.1342886,
    "address": "1-6 Grand Parade, Brighton",
    "rating": 2.6,
    "side": "central-east"
  },
  {
    "name": "Easy Hours",
    "type": "convenience_store",
    "lat": 50.82684090000001,
    "lon": -0.1342886,
    "address": "1-6 Grand Parade, Brighton",
    "rating": 3.2,
    "side": "central-east"
  },
  {
    "name": "Convenience Corner",
    "type": "convenience_store",
    "lat": 50.8203407,
    "lon": -0.1304928,
    "address": "59 Saint James's Street, Brighton",
    "rating": 4.3,
    "side": "south-east"
  },
  {
    "name": "Boss - Co",
    "type": "convenience_store",
    "lat": 50.8274105,
    "lon": -0.1343844,
    "address": "26 Richmond Place, Brighton",
    "rating": 3,
    "side": "north-east"
  },
  {
    "name": "Local Star",
    "type": "convenience_store",
    "lat": 50.8216362,
    "lon": -0.1289693,
    "address": "105 Edward Street, Brighton",
    "rating": 4.8,
    "side": "central-east"
  }
]