[
  {
    "name": "bp",
    "type": "gas_station",
    "lat": 50.8371071,
    "lon": -0.1332851,
    "address": "Ditchling Road, Brighton",
    "rating": 2.9,
    "side": "north-east"
  },
  {
    "name": "Esso",
    "type": "gas_station",
    "lat": 50.81737580000001,
    "lon": -0.112318,
    "address": "236 Eastern Road, Brighton",
    "rating": 4,
    "side": "south-east"
  },
  {
    "name": "Esso",
    "type": "gas_station",
    "lat": 50.8383349,
    "lon": -0.1552127,
    "address": "Dyke Road, Hove",
    "rating": 4,
    "side": "north-west"
  },
  {
    "name": "bp",
    "type": "gas_station",
    "lat": 50.8372877,
    "lon": -0.1249371,
    "address": "100 Lewes Road, Brighton",
    "rating": 2.8,
    "side": "north-east"
  },
  {
    "name": "Esso",
    "type": "gas_station",
    "lat": 50.834856,
    "lon": -0.169783,
    "address": "Station Approach, Denmark Villas, Brighton, Hove",
    "rating": 3.8,
    "side": "north-west"
  },
  {
    "name": "Shell",
    "type": "gas_station",
    "lat": 50.842145,
    "lon": -0.151529,
    "address": "193 Preston Road, Brighton",
    "rating": 3.9,
    "side": "north-west"
  },
  {
    "name": "Tesco Esso Express",
    "type": "gas_station",
    "lat": 50.83817149999999,
    "lon": -0.1549579,
    "address": "239 Dyke Road, Hove",
    "rating": 3.3,
    "side": "north-west"
  },
  {
    "name": "Hursts",
    "type": "gas_station",
    "lat": 50.83692809999999,
    "lon": -0.1332147,
    "address": "Ditchling Road, Brighton",
    "rating": null,
    "side": "north-east"
  },
  {
    "name": "Esso - Londis Fuel Station (Downsway)",
    "type": "gas_station",
    "lat": 50.8370684,
    "lon": -0.1333879,
    "address": "Ditchling Road, Brighton",
    "rating": 4.2,
    "side": "north-east"
  },
  {
    "name": "Vogue Gyratory",
    "type": "gas_station",
    "lat": 50.8372599,
    "lon": -0.124828,
    "address": "96 Lewes Road, Brighton",
    "rating": 5,
    "side": "north-east"
  },
  {
    "name": "Asda Petrol Station",
    "type": "gas_station",
    "lat": 50.81254249999999,
    "lon": -0.1031213,
    "address": "Brighton Marina",
    "rating": 4.2,
    "side": "south-east"
  }
]