[
  {
    "name": "Kamsons Pharmacy",
    "type": "pharmacy",
    "lat": 50.8385356,
    "lon": -0.1477323,
    "address": "175 Preston Road, Brighton",
    "rating": 4.2,
    "side": "north-west"
  },
  {
    "name": "Superdrug Pharmacy",
    "type": "pharmacy",
    "lat": 50.8242729,
    "lon": -0.1500648,
    "address": "78 Western Road, Brighton",
    "rating": 3.6,
    "side": "central-west"
  },
  {
    "name": "Kamsons Pharmacy",
    "type": "pharmacy",
    "lat": 50.83155679999999,
    "lon": -0.1256913,
    "address": "74-76 Elm Grove, Brighton",
    "rating": 4.1,
    "side": "north-east"
  },
  {
    "name": "Charter Pharmacy",
    "type": "pharmacy",
    "lat": 50.8314021,
    "lon": -0.1580016,
    "address": "Charter Medical Centre, 88 Davigdor Road, Hove",
    "rating": 4.2,
    "side": "north-west"
  },
  {
    "name": "Kamsons Pharmacy",
    "type": "pharmacy",
    "lat": 50.81849279999999,
    "lon": -0.1062721,
    "address": "25-26 Whitehawk Road, Brighton",
    "rating": 4,
    "side": "south-east"
  },
  {
    "name": "Kamsons Pharmacy",
    "type": "pharmacy",
    "lat": 50.8440062,
    "lon": -0.1436709,
    "address": "94 Preston Drove, Brighton",
    "rating": 4.6,
    "side": "north-central"
  },
  {
    "name": "Trinity Medical Centre",
    "type": "pharmacy",
    "lat": 50.8311964,
    "lon": -0.1718988,
    "address": "1 Goldstone Villas, Hove",
    "rating": 3.2,
    "side": "north-west"
  },
  {
    "name": "Traherne Pharmacy & Travel Clinic",
    "type": "pharmacy",
    "lat": 50.83598010000001,
    "lon": -0.1701075,
    "address": "13 Hove Park Villas, Hove",
    "rating": 4.5,
    "side": "north-west"
  },
  {
    "name": "Coastway Vets, Brighton",
    "type": "pharmacy",
    "lat": 50.82157840000001,
    "lon": -0.1231111,
    "address": "Freshfield Industrial Estate, Stevenson Road, Brighton",
    "rating": 4.1,
    "side": "central-east"
  },
  {
    "name": "Ross Pharmacy",
    "type": "pharmacy",
    "lat": 50.82809169999999,
    "lon": -0.1355695,
    "address": "3 York Place, Brighton",
    "rating": 4.5,
    "side": "north-central"
  },
  {
    "name": "Kamsons Pharmacy",
    "type": "pharmacy",
    "lat": 50.83229790000001,
    "lon": -0.1298518,
    "address": "1a Lewes Road, Brighton",
    "rating": 4.1,
    "side": "north-east"
  },
  {
    "name": "Kamsons Pharmacy (Beaconsfield)",
    "type": "pharmacy",
    "lat": 50.83760279999999,
    "lon": -0.1403542,
    "address": "90 Beaconsfield Road, Brighton and Hove, Brighton",
    "rating": 3.5,
    "side": "north-central"
  },
  {
    "name": "Gunns Pharmacy",
    "type": "pharmacy",
    "lat": 50.8249582,
    "lon": -0.1539675,
    "address": "108 Western Road, Brighton",
    "rating": 4.1,
    "side": "central-west"
  },
  {
    "name": "Pyramid Pharmacy",
    "type": "pharmacy",
    "lat": 50.8279169,
    "lon": -0.1250366,
    "address": "77-78 Islingword Road, Brighton",
    "rating": 3.3,
    "side": "north-east"
  },
  {
    "name": "Lane and Stedman Pharmacy",
    "type": "pharmacy",
    "lat": 50.82585570000001,
    "lon": -0.1594751,
    "address": "100 Western Road, Hove",
    "rating": 3.7,
    "side": "central-west"
  },
  {
    "name": "Ashton's Chemist",
    "type": "pharmacy",
    "lat": 50.8305017,
    "lon": -0.1471745,
    "address": "98 Dyke Road, Brighton",
    "rating": 2.3,
    "side": "north-west"
  },
  {
    "name": "Westons Chemist",
    "type": "pharmacy",
    "lat": 50.84020659999999,
    "lon": -0.1219861,
    "address": "6-7 Coombe Terrace, Lewes Road, Brighton",
    "rating": 4.3,
    "side": "north-east"
  },
  {
    "name": "Kamsons Pharmacy",
    "type": "pharmacy",
    "lat": 50.821002,
    "lon": -0.1360291,
    "address": "128 Saint James's Street, Brighton",
    "rating": 3.7,
    "side": "central-central"
  },
  {
    "name": "ASDA Pharmacy",
    "type": "pharmacy",
    "lat": 50.8136859,
    "lon": -0.1036543,
    "address": "Brighton Marina, Brighton",
    "rating": 3.1,
    "side": "south-east"
  },
  {
    "name": "Matlock Pharmacy travel clinic yellow fever center",
    "type": "pharmacy",
    "lat": 50.843289,
    "lon": -0.1581885,
    "address": "12 Matlock Road, Brighton",
    "rating": 4.8,
    "side": "north-west"
  },
  {
    "name": "Osbon Pharmacy(Trinity) ,Travel Vaccine , Ear Syringing & Weight loss Clinic",
    "type": "pharmacy",
    "lat": 50.8312562,
    "lon": -0.1720927,
    "address": "3 Goldstone Villas, Hove",
    "rating": 4.2,
    "side": "north-west"
  },
  {
    "name": "Sharps Pharmacy",
    "type": "pharmacy",
    "lat": 50.8400791,
    "lon": -0.1208842,
    "address": "26 Coombe Road, Brighton",
    "rating": 4.8,
    "side": "north-east"
  },
  {
    "name": "Brighton Community Pharmacy",
    "type": "pharmacy",
    "lat": 50.820893,
    "lon": -0.1340903,
    "address": "24 Saint James's Street, Brighton",
    "rating": 4.4,
    "side": "south-east"
  },
  {
    "name": "Boots Pharmacy",
    "type": "pharmacy",
    "lat": 50.8236766,
    "lon": -0.1431544,
    "address": "129 North Street, Brighton",
    "rating": 2.7,
    "side": "central-central"
  },
  {
    "name": "Pavillion Pharmacy",
    "type": "pharmacy",
    "lat": 50.8309748,
    "lon": -0.1353993,
    "address": "10 Oxford Street, Brighton",
    "rating": 3.5,
    "side": "north-central"
  },
  {
    "name": "Kemptown Pharmacy & Travel Clinic",
    "type": "pharmacy",
    "lat": 50.8190026,
    "lon": -0.1229941,
    "address": "105 Saint George's Road, Brighton",
    "rating": 3.7,
    "side": "south-east"
  },
  {
    "name": "Pharm@Sea",
    "type": "pharmacy",
    "lat": 50.81890800000001,
    "lon": -0.118737,
    "address": "Lower Ground Floor, Outpatient Department Royal Sussex County Hospital, Eastern Road, Brighton",
    "rating": 3.1,
    "side": "south-east"
  },
  {
    "name": "Kamsons Pharmacy",
    "type": "pharmacy",
    "lat": 50.825427,
    "lon": -0.1071462,
    "address": "179 Whitehawk Road, Brighton",
    "rating": 4.1,
    "side": "central-east"
  },
  {
    "name": "Medicine On Time",
    "type": "pharmacy",
    "lat": 50.8401259,
    "lon": -0.1221018,
    "address": "6-7 Coombe Terrace, Brighton",
    "rating": 5,
    "side": "north-east"
  },
  {
    "name": "Harpers Pharmacy",
    "type": "pharmacy",
    "lat": 50.84380239999999,
    "lon": -0.1306826,
    "address": "12 Hollingbury Place, Brighton",
    "rating": 4.7,
    "side": "north-east"
  },
  {
    "name": "Osbon Pharmacy (Parris & Greening)",
    "type": "pharmacy",
    "lat": 50.8279107,
    "lon": -0.171319,
    "address": "105 Church Road, Hove",
    "rating": 3.6,
    "side": "north-west"
  },
  {
    "name": "Asda Brighton Marina Superstore",
    "type": "pharmacy",
    "lat": 50.81366320000001,
    "lon": -0.1037569,
    "address": "Brighton Marina, Brighton",
    "rating": 3.9,
    "side": "south-east"
  },
  {
    "name": "Boots Pharmacy",
    "type": "pharmacy",
    "lat": 50.8306323,
    "lon": -0.1732224,
    "address": "59-61 George Street, Hove",
    "rating": 2.9,
    "side": "north-west"
  },
  {
    "name": "Mypharmacy",
    "type": "pharmacy",
    "lat": 50.83466929999999,
    "lon": -0.1707064,
    "address": "3 Goldstone Villas, Hove",
    "rating": null,
    "side": "north-west"
  },
  {
    "name": "Kamsons Pharmacy",
    "type": "pharmacy",
    "lat": 50.845577,
    "lon": -0.115095,
    "address": "50 The Highway, Brighton",
    "rating": 4.1,
    "side": "north-east"
  },
  {
    "name": "Better Health Pharmacy",
    "type": "pharmacy",
    "lat": 50.8288374,
    "lon": -0.1778357,
    "address": "187 Church Road, Hove",
    "rating": 5,
    "side": "north-west"
  }
]