[
  {
    "name": "Post Office Ltd",
    "type": "post_office",
    "lat": 50.831272,
    "lon": -0.1481624,
    "address": "20 Melville Road, Hove",
    "rating": 4.8,
    "side": "north-west"
  },
  {
    "name": "Lewes Road Post Office and phone shop",
    "type": "post_office",
    "lat": 50.83249540000001,
    "lon": -0.1295261,
    "address": "6 Lewes Road, Brighton",
    "rating": 2.5,
    "side": "north-east"
  },
  {
    "name": "St James Street Post Office",
    "type": "post_office",
    "lat": 50.820968,
    "lon": -0.134424,
    "address": "20 Saint James's Street, Brighton",
    "rating": 3.6,
    "side": "south-east"
  },
  {
    "name": "St George's",
    "type": "post_office",
    "lat": 50.8193543,
    "lon": -0.1237148,
    "address": "1, Garnet House, 1, Local, Saint George's Road, Brighton",
    "rating": 4.2,
    "side": "south-east"
  },
  {
    "name": "Post Office",
    "type": "post_office",
    "lat": 50.8328462,
    "lon": -0.1376873,
    "address": "82 London Road, Brighton",
    "rating": 3.7,
    "side": "north-central"
  },
  {
    "name": "Church Road Hove Post Office / Taylors",
    "type": "post_office",
    "lat": 50.8271619,
    "lon": -0.1672864,
    "address": "30 Church Road, Hove",
    "rating": 3.2,
    "side": "north-west"
  },
  {
    "name": "Whitehawk Road Post Office",
    "type": "post_office",
    "lat": 50.81763609999999,
    "lon": -0.106773,
    "address": "1B-2B, Whitehawk Road, Brighton",
    "rating": 4.9,
    "side": "south-east"
  },
  {
    "name": "Blatchington Road Post Office",
    "type": "post_office",
    "lat": 50.8309635,
    "lon": -0.1730757,
    "address": "92 Blatchington Road, Hove",
    "rating": 4.5,
    "side": "north-west"
  },
  {
    "name": "Whitehawk Avenue Post Office",
    "type": "post_office",
    "lat": 50.8273944,
    "lon": -0.1053243,
    "address": "27 Whitehawk Way, Brighton",
    "rating": 3.8,
    "side": "north-east"
  },
  {
    "name": "Post box",
    "type": "post_office",
    "lat": 50.8239391,
    "lon": -0.1389858,
    "address": "1 Church Street, Brighton",
    "rating": null,
    "side": "central-central"
  },
  {
    "name": "Post Box",
    "type": "post_office",
    "lat": 50.8209846,
    "lon": -0.1345522,
    "address": "17 Saint James's Street, Kemptown, Brighton and Hove, Brighton",
    "rating": null,
    "side": "south-east"
  },
  {
    "name": "Post Box",
    "type": "post_office",
    "lat": 50.8207672,
    "lon": -0.1397485,
    "address": "Bartholomews, Brighton and Hove, Brighton",
    "rating": null,
    "side": "south-central"
  },
  {
    "name": "Post box",
    "type": "post_office",
    "lat": 50.8224762,
    "lon": -0.1415282,
    "address": "52 Ship Street Court, Brighton and Hove, Brighton",
    "rating": 4,
    "side": "central-central"
  },
  {
    "name": "Post Office",
    "type": "post_office",
    "lat": 50.8231116,
    "lon": -0.1458639,
    "address": "69, Churchill Square, Brighton",
    "rating": 2.3,
    "side": "central-west"
  },
  {
    "name": "Post box",
    "type": "post_office",
    "lat": 50.82165,
    "lon": -0.1272028,
    "address": "Park Street, Brighton and Hove, Brighton",
    "rating": null,
    "side": "central-east"
  },
  {
    "name": "Letter Box Richmond Terrace",
    "type": "post_office",
    "lat": 50.82938559999999,
    "lon": -0.133136,
    "address": "5 Richmond Terrace, Brighton",
    "rating": null,
    "side": "north-east"
  },
  {
    "name": "Post box",
    "type": "post_office",
    "lat": 50.8217475,
    "lon": -0.1500481,
    "address": "12-13 Brunswick Terrace, Brighton and Hove, Hove",
    "rating": 4,
    "side": "central-west"
  },
  {
    "name": "parcel post box",
    "type": "post_office",
    "lat": 50.8318458,
    "lon": -0.1388488,
    "address": "Brighton",
    "rating": null,
    "side": "north-central"
  },
  {
    "name": "Royal mail Post box",
    "type": "post_office",
    "lat": 50.82794750000001,
    "lon": -0.152631,
    "address": "Brighton",
    "rating": null,
    "side": "north-west"
  },
  {
    "name": "Royal Mail Post Box",
    "type": "post_office",
    "lat": 50.8331562,
    "lon": -0.1447722,
    "address": "Old Shoreham Road, Brighton and Hove, Brighton",
    "rating": 2,
    "side": "north-central"
  },
  {
    "name": "Post Office Down Stores",
    "type": "post_office",
    "lat": 50.8281211,
    "lon": -0.1200232,
    "address": "58 Down Terrace, Brighton and Hove, Brighton",
    "rating": 3.9,
    "side": "north-east"
  },
  {
    "name": "Post Box",
    "type": "post_office",
    "lat": 50.83390319999999,
    "lon": -0.1472937,
    "address": "9 Stanford Road, Brighton",
    "rating": null,
    "side": "north-west"
  },
  {
    "name": "Post & Packing Brighton",
    "type": "post_office",
    "lat": 50.83567919999999,
    "lon": -0.1418454,
    "address": "84 Preston Road, Brighton",
    "rating": 3,
    "side": "north-central"
  },
  {
    "name": "Post Box",
    "type": "post_office",
    "lat": 50.836112,
    "lon": -0.1255935,
    "address": "82 Lewes Road, Brighton and Hove, Brighton",
    "rating": null,
    "side": "north-east"
  },
  {
    "name": "Post box",
    "type": "post_office",
    "lat": 50.8321516,
    "lon": -0.1602322,
    "address": "69 Cromwell Road, Hove",
    "rating": null,
    "side": "north-west"
  },
  {
    "name": "Royal Mail Priority Post Box",
    "type": "post_office",
    "lat": 50.838303,
    "lon": -0.1546831,
    "address": "Dyke Road, Hove",
    "rating": null,
    "side": "north-west"
  },
  {
    "name": "Royal Mail Parcel Postbox",
    "type": "post_office",
    "lat": 50.8273813,
    "lon": -0.1668425,
    "address": "Brighton and Hove, Hove",
    "rating": 5,
    "side": "north-west"
  },
  {
    "name": "Hollingbury Post Office",
    "type": "post_office",
    "lat": 50.84335399999999,
    "lon": -0.1353397,
    "address": "148 Preston Drove, Brighton",
    "rating": 3.8,
    "side": "north-central"
  },
  {
    "name": "Hollingbury Place Post Office",
    "type": "post_office",
    "lat": 50.8440409,
    "lon": -0.1308543,
    "address": "7 Hollingbury Place, Brighton",
    "rating": 4.5,
    "side": "north-east"
  },
  {
    "name": "Post box",
    "type": "post_office",
    "lat": 50.8135621,
    "lon": -0.1044499,
    "address": "Marina Way, Brighton Marina, Brighton and Hove, Brighton",
    "rating": null,
    "side": "south-east"
  },
  {
    "name": "Post box",
    "type": "post_office",
    "lat": 50.8316605,
    "lon": -0.1720276,
    "address": "1 Eaton Villas, Brighton and Hove, Hove",
    "rating": 5,
    "side": "north-west"
  },
  {
    "name": "Post box",
    "type": "post_office",
    "lat": 50.8437559,
    "lon": -0.1553238,
    "address": "Brighton and Hove, Brighton",
    "rating": 5,
    "side": "north-west"
  },
  {
    "name": "Matlock Store",
    "type": "post_office",
    "lat": 50.84339109999999,
    "lon": -0.1584925,
    "address": "1 Matlock Road, Brighton",
    "rating": 3.8,
    "side": "north-west"
  },
  {
    "name": "Tivoli Post Office",
    "type": "post_office",
    "lat": 50.8434464,
    "lon": -0.158494,
    "address": "1 Matlock Road, Brighton",
    "rating": 3.5,
    "side": "north-west"
  }
]